{
	"communities": [
		{
			"name": "Utrecht",
			"lat": 52.09073739999999,
			"lon": 5.081420100000023,
			"link": "$$DISCORD_GLOBAL$$",
			"parent_name": "PauseAI Netherlands"
		},
		{
			"name": "Nottingham",
			"lat": 52.9548,
			"lon": -1.1581,
			"link": "$$DISCORD_GLOBAL$$",
			"parent_name": "PauseAI UK"
		},
		{
			"name": "Oldenburg",
			"lat": 53.1412,
			"lon": 8.2146,
			"link": "$$DISCORD_GLOBAL$$",
			"parent_name": "PauseAI Germany"
		},
		{
			"name": "Edinburgh",
			"lat": 55.9533,
			"lon": -3.1883,
			"link": "$$DISCORD_GLOBAL$$",
			"parent_name": "PauseAI UK"
		},
		{
			"name": "Manchester",
			"lat": 53.4808,
			"lon": -2.2426,
			"link": "$$DISCORD_GLOBAL$$",
			"parent_name": "PauseAI UK"
		},
		{
			"name": "Copenhagen",
			"lat": 55.6761,
			"lon": 12.5683,
			"link": "$$DISCORD_GLOBAL$$"
		},
		{
			"name": "London",
			"lat": 51.5073509,
			"lon": -0.12775829999998223,
			"link": "https://pauseai.uk/london/",
			"parent_name": "PauseAI UK"
		},
		{
			"name": "Rosario",
			"lat": -32.9442,
			"lon": -60.6505,
			"link": "$$DISCORD_US$$"
		},
		{
			"name": "Augsburg",
			"lat": 48.3705,
			"lon": 10.8978,
			"link": "$$DISCORD_GERMANY$$",
			"parent_name": "PauseAI Germany"
		},
		{
			"name": "Paris",
			"lat": 48.8647,
			"lon": 2.349,
			"link": "$$DISCORD_FRANCE$$",
			"parent_name": "PauseAI France"
		},
		{
			"name": "Montreal",
			"lat": 45.5088,
			"lon": -73.5616,
			"link": "https://pauseai.ca/fr/montreal.html",
			"parent_name": "PauseAI Canada"
		},
		{
			"name": "Nairobi",
			"lat": -1.286389,
			"lon": 36.817223,
			"link": "$$DISCORD_GLOBAL$$",
			"parent_name": "PauseAI Kenya"
		},
		{
			"name": "Stockholm",
			"lat": 59.3293,
			"lon": 18.0686,
			"link": "$$DISCORD_GLOBAL$$",
			"parent_name": "PauseAI Sweden"
		},
		{
			"name": "Marseille",
			"lat": 43.2963,
			"lon": 5.37,
			"link": "$$DISCORD_FRANCE$$",
			"parent_name": "PauseAI France"
		},
		{
			"name": "São Paulo",
			"lat": -23.5338,
			"lon": -46.6253,
			"link": "$$DISCORD_GLOBAL$$"
		},
		{
			"name": "Fredrikstad",
			"lat": 59.2201,
			"lon": 10.9299,
			"link": "$$DISCORD_GLOBAL$$"
		},
		{
			"name": "Lucerne",
			"lat": 47.0502,
			"lon": 8.3093,
			"link": "$$DISCORD_GLOBAL$$"
		},
		{
			"name": "Berlin",
			"lat": 52.52,
			"lon": 13.405,
			"link": "https://t.me/+12wemb6BZuQyNjVi",
			"parent_name": "PauseAI Germany"
		},
		{
			"name": "Rome",
			"lat": 41.8967,
			"lon": 12.482,
			"link": "$$DISCORD_GLOBAL$$"
		},
		{
			"name": "Toronto",
			"lat": 43.6511,
			"lon": -79.347,
			"link": "$$DISCORD_GLOBAL$$",
			"parent_name": "PauseAI Canada"
		},
		{
			"name": "Amsterdam",
			"lat": 52.378,
			"lon": 4.8971,
			"link": "https://chat.whatsapp.com/EOGvhoPCiCqDqwuf9JUxtB",
			"parent_name": "PauseAI Netherlands"
		},
		{
			"name": "Munich",
			"lat": 48.1372,
			"lon": 11.5761,
			"link": "$$DISCORD_GERMANY$$",
			"parent_name": "PauseAI Germany"
		},
		{
			"name": "Cambridge",
			"lat": 52.2053,
			"lon": 0.1192,
			"link": "$$DISCORD_GLOBAL$$",
			"parent_name": "PauseAI UK"
		},
		{
			"name": "Hanoi",
			"lat": 21.0285,
			"lon": 105.8048,
			"link": "$$DISCORD_GLOBAL$$"
		},
		{
			"name": "Gdynia",
			"lat": 54.5168,
			"lon": 18.5419,
			"link": "$$DISCORD_GLOBAL$$",
			"parent_name": "PauseAI Poland"
		},
		{
			"name": "Blackpool",
			"lat": 53.8159,
			"lon": -3.0553,
			"link": "$$DISCORD_GLOBAL$$",
			"parent_name": "PauseAI UK"
		},
		{
			"name": "Vancouver",
			"lat": 49.2463,
			"lon": -123.1162,
			"link": "$$DISCORD_GLOBAL$$",
			"parent_name": "PauseAI Canada"
		},
		{
			"name": "Melbourne",
			"lat": -37.8136,
			"lon": 144.9631,
			"link": "$$DISCORD_GLOBAL$$",
			"parent_name": "PauseAI Australia"
		},
		{
			"name": "Hamburg",
			"lat": 53.5511,
			"lon": 9.9937,
			"link": "$$DISCORD_GERMANY$$",
			"parent_name": "PauseAI Germany"
		},
		{
			"name": "Zurich",
			"lat": 47.3769,
			"lon": 8.5417,
			"link": "$$DISCORD_GLOBAL$$"
		},
		{
			"name": "Osnabrück",
			"lat": 52.2681,
			"lon": 8.0566,
			"link": "$$DISCORD_GERMANY$$",
			"parent_name": "PauseAI Germany"
		},
		{
			"name": "Milan",
			"lat": 45.4642,
			"lon": 9.19,
			"link": "$$WHATSAPP_ITALY$$"
		},
		{
			"name": "Kraków",
			"lat": 50.0647,
			"lon": 19.945,
			"link": "$$DISCORD_GLOBAL$$",
			"parent_name": "PauseAI Poland"
		},
		{
			"name": "Yaoundé",
			"lat": 3.848,
			"lon": 11.5027,
			"link": "https://chat.whatsapp.com/EmSo5C486JzDdFOiojByje"
		},
		{
			"name": "Mo i Rana",
			"lat": 66.3149,
			"lon": 14.1657,
			"link": "$$DISCORD_GLOBAL$$"
		},
		{
			"name": "Trondheim",
			"lat": 63.4305,
			"lon": 10.3951,
			"link": "$$DISCORD_GLOBAL$$"
		},
		{
			"name": "Honefoss",
			"lat": 60.1002,
			"lon": 10.0202,
			"link": "$$DISCORD_GLOBAL$$"
		},
		{
			"name": "Kristiansand",
			"lat": 58.1556,
			"lon": 8.0167,
			"link": "$$DISCORD_GLOBAL$$"
		},
		{
			"name": "Prague",
			"lat": 50.0755,
			"lon": 14.4378,
			"link": "https://discord.gg/4rZ2nGZB3r",
			"parent_name": "PauseAI Czechia"
		},
		{
			"name": "Santiago",
			"lat": -33.4569,
			"lon": -70.6483,
			"link": "https://t.me/+VwLcz7MAIDg3MTFh"
		},
		{
			"name": "Vienna",
			"lat": 48.2082,
			"lon": 16.3738,
			"link": "$$DISCORD_GLOBAL$$"
		},
		{
			"name": "Halle (Saale)",
			"lat": 51.4872,
			"lon": 11.9656,
			"link": "https://t.me/+tobhhF27liwyMjhi",
			"parent_name": "PauseAI Germany"
		},
		{
			"name": "Münster",
			"lat": 51.9612,
			"lon": 7.6282,
			"link": "$$DISCORD_GERMANY$$",
			"parent_name": "PauseAI Germany"
		},
		{
			"name": "Freiburg",
			"lat": 48,
			"lon": 7.8333,
			"link": "$$DISCORD_GLOBAL$$",
			"parent_name": "PauseAI Germany"
		},
		{
			"name": "Canberra",
			"lat": -35.2809,
			"lon": 149.13,
			"link": "$$DISCORD_GLOBAL$$",
			"parent_name": "PauseAI Australia"
		},
		{
			"name": "PauseAI en Español",
			"lat": 23.6345,
			"lon": 100.4515,
			"link": "https://chat.whatsapp.com/KEgD22LEo6xEVvjH4fD8br"
		},
		{
			"name": "Launceston",
			"lat": -41.433349,
			"lon": 147.123323,
			"link": "$$DISCORD_GLOBAL$$",
			"parent_name": "PauseAI Australia"
		},
		{
			"name": "Rostock",
			"lat": 54.18,
			"lon": 12.08,
			"link": "$$DISCORD_GLOBAL$$",
			"parent_name": "PauseAI Germany"
		},
		{
			"name": "Manila",
			"lat": 14.6,
			"lon": 120.98,
			"link": "$$DISCORD_GLOBAL$$"
		},
		{
			"name": "Helsinki",
			"lat": 60.17,
			"lon": 24.95,
			"link": "$$DISCORD_GLOBAL$$"
		},
		{
			"name": "Osaka",
			"lat": 34.69,
			"lon": 135.5,
			"link": "$$DISCORD_GLOBAL$$"
		},
		{
			"name": "Brussels",
			"lat": 50.85,
			"lon": 4.35,
			"link": "$$DISCORD_GLOBAL$$"
		},
		{
			"name": "Réunion Island",
			"lat": -21.115,
			"lon": 55.533,
			"link": "$$DISCORD_GLOBAL$$",
			"parent_name": "PauseAI France"
		},
		{
			"name": "Veszprém",
			"lat": 47.1,
			"lon": 17.91,
			"link": "$$DISCORD_GLOBAL$$"
		},
		{
			"name": "Phoenix",
			"lat": 33.4484,
			"lon": -112.074,
			"link": "$$WEBSITE_US$$",
			"parent_name": "PauseAI US"
		},
		{
			"name": "Las Positas College (Livermore)",
			"lat": 37.6185,
			"lon": -121.7639,
			"link": "$$WEBSITE_US$$",
			"parent_name": "PauseAI US"
		},
		{
			"name": "San Diego",
			"lat": 32.7157,
			"lon": -117.1611,
			"link": "$$WEBSITE_US$$",
			"parent_name": "PauseAI US"
		},
		{
			"name": "San Francisco",
			"lat": 37.7749,
			"lon": -122.4194,
			"link": "$$WEBSITE_US$$",
			"parent_name": "PauseAI US"
		},
		{
			"name": "UC Santa Barbara",
			"lat": 34.414,
			"lon": -119.8489,
			"link": "$$WEBSITE_US$$",
			"parent_name": "PauseAI US"
		},
		{
			"name": "Stanford",
			"lat": 37.4275,
			"lon": -122.1697,
			"link": "$$WEBSITE_US$$",
			"parent_name": "PauseAI US"
		},
		{
			"name": "UC Boulder",
			"lat": 40.0076,
			"lon": -105.2659,
			"link": "$$WEBSITE_US$$",
			"parent_name": "PauseAI US"
		},
		{
			"name": "Denver",
			"lat": 39.7392,
			"lon": -104.9903,
			"link": "$$WEBSITE_US$$",
			"parent_name": "PauseAI US"
		},
		{
			"name": "Hartford",
			"lat": 41.7658,
			"lon": -72.6734,
			"link": "$$WEBSITE_US$$",
			"parent_name": "PauseAI US"
		},
		{
			"name": "Washington DC",
			"lat": 38.9072,
			"lon": -77.0369,
			"link": "$$WEBSITE_US$$",
			"parent_name": "PauseAI US"
		},
		{
			"name": "Orlando",
			"lat": 28.5383,
			"lon": -81.3792,
			"link": "$$WEBSITE_US$$",
			"parent_name": "PauseAI US"
		},
		{
			"name": "Atlanta",
			"lat": 33.749,
			"lon": -84.388,
			"link": "$$WEBSITE_US$$",
			"parent_name": "PauseAI US"
		},
		{
			"name": "Boise",
			"lat": 43.615,
			"lon": -116.2023,
			"link": "$$WEBSITE_US$$",
			"parent_name": "PauseAI US"
		},
		{
			"name": "Lawrence",
			"lat": 38.9717,
			"lon": -95.2353,
			"link": "$$WEBSITE_US$$",
			"parent_name": "PauseAI US"
		},
		{
			"name": "Boston",
			"lat": 42.3601,
			"lon": -71.0589,
			"link": "$$WEBSITE_US$$",
			"parent_name": "PauseAI US"
		},
		{
			"name": "Queen Anne's County",
			"lat": 39.0379,
			"lon": -75.9577,
			"link": "$$WEBSITE_US$$",
			"parent_name": "PauseAI US"
		},
		{
			"name": "Grand Rapids",
			"lat": 42.9634,
			"lon": -85.6681,
			"link": "$$WEBSITE_US$$",
			"parent_name": "PauseAI US"
		},
		{
			"name": "Washington University (Saint Louis)",
			"lat": 38.6488,
			"lon": -90.3108,
			"link": "$$WEBSITE_US$$",
			"parent_name": "PauseAI US"
		},
		{
			"name": "Jersey City",
			"lat": 40.7178,
			"lon": -74.0431,
			"link": "$$WEBSITE_US$$",
			"parent_name": "PauseAI US"
		},
		{
			"name": "Reno",
			"lat": 39.5296,
			"lon": -119.8138,
			"link": "$$WEBSITE_US$$",
			"parent_name": "PauseAI US"
		},
		{
			"name": "New York City",
			"lat": 40.7128,
			"lon": -74.006,
			"link": "$$WEBSITE_US$$",
			"parent_name": "PauseAI US"
		},
		{
			"name": "Columbus",
			"lat": 39.9612,
			"lon": -82.9988,
			"link": "$$WEBSITE_US$$",
			"parent_name": "PauseAI US"
		},
		{
			"name": "Dayton",
			"lat": 39.7589,
			"lon": -84.1916,
			"link": "$$WEBSITE_US$$",
			"parent_name": "PauseAI US"
		},
		{
			"name": "Portland",
			"lat": 45.5051,
			"lon": -122.675,
			"link": "$$WEBSITE_US$$",
			"parent_name": "PauseAI US"
		},
		{
			"name": "Philadelphia",
			"lat": 39.9526,
			"lon": -75.1652,
			"link": "$$WEBSITE_US$$",
			"parent_name": "PauseAI US"
		},
		{
			"name": "Pittsburgh",
			"lat": 40.4406,
			"lon": -79.9959,
			"link": "$$WEBSITE_US$$",
			"parent_name": "PauseAI US"
		},
		{
			"name": "Providence",
			"lat": 41.824,
			"lon": -71.4128,
			"link": "$$WEBSITE_US$$",
			"parent_name": "PauseAI US"
		},
		{
			"name": "Vanderbilt University (Nashville)",
			"lat": 36.1447,
			"lon": -86.8027,
			"link": "$$WEBSITE_US$$",
			"parent_name": "PauseAI US"
		},
		{
			"name": "Austin",
			"lat": 30.2672,
			"lon": -97.7431,
			"link": "$$WEBSITE_US$$",
			"parent_name": "PauseAI US"
		},
		{
			"name": "Houston",
			"lat": 29.7604,
			"lon": -95.3698,
			"link": "$$WEBSITE_US$$",
			"parent_name": "PauseAI US"
		},
		{
			"name": "Seattle",
			"lat": 47.6062,
			"lon": -122.3321,
			"link": "$$WEBSITE_US$$",
			"parent_name": "PauseAI US"
		},
		{
			"name": "Leicester",
			"lat": 52.6369,
			"lon": -1.1398,
			"link": "https://pauseai.uk/leicester/",
			"parent_name": "PauseAI UK"
		},
		{
			"name": "Hyderabad",
			"lat": 17.385,
			"lon": 78.4867,
			"link": "$$DISCORD_GLOBAL$$"
		},
		{
			"name": "Fukuoka",
			"lat": 33.5904,
			"lon": 130.4017,
			"link": "https://line.me/ti/g2/rrV7AC9zmKz802Yk-BvJcyb7fHdppCtDQ1RGxQ?utm_source=invitation&utm_medium=link_copy&utm_campaign=default"
		},
		{
			"name": "Umeå",
			"lat": 63.8258,
			"lon": 20.263,
			"link": "$$DISCORD_GLOBAL$$",
			"parent_name": "PauseAI Sweden"
		},
		{
			"name": "Astana",
			"lat": 51.1694,
			"lon": 71.4491,
			"link": "$$DISCORD_GLOBAL$$"
		},
		{
			"name": "Geneva",
			"lat": 46.2044,
			"lon": 6.1432,
			"link": "$$DISCORD_GLOBAL$$"
		},
		{
			"name": "Exeter",
			"lat": 50.7184,
			"lon": -3.5339,
			"link": "$$DISCORD_GLOBAL$$",
			"parent_name": "PauseAI UK"
		},
		{
			"name": "Oxford",
			"lat": 51.752,
			"lon": -1.2577,
			"link": "https://pauseai.uk/oxford/",
			"parent_name": "PauseAI UK"
		},
		{
			"name": "Glasgow",
			"lat": 55.8642,
			"lon": -4.2518,
			"link": "https://pauseai.uk/glasgow/",
			"parent_name": "PauseAI UK"
		}
	]
}
